[
  {
    "city": "Bogota",
    "lat": 4.60971,
    "lng": -74.08175,
    "airport": {
      "iata": "BOG",
      "name": "El Dorado International Airport",
      "delay": 3
    }
  },
  {
    "city": "Lima",
    "lat": -12.04318,
    "lng": -77.02824,
    "airport": {
      "iata": "LIM",
      "name": "Jorge Chávez International Airport",
      "delay": 2
    }
  },
  {
    "city": "New York",
    "lat": 40.7128,
    "lng": -74.006,
    "airport": {
      "iata": "JFK",
      "name": "John F. Kennedy International Airport",
      "delay": 1
    }
  },
  {
    "city": "London",
    "lat": 51.5074,
    "lng": -0.1278,
    "airport": {
      "iata": "LHR",
      "name": "Heathrow Airport",
      "delay": 4
    }
  },
  {
    "city": "Paris",
    "lat": 48.8566,
    "lng": 2.3522,
    "airport": {
      "iata": "CDG",
      "name": "Charles de Gaulle Airport",
      "delay": 2
    }
  },
  {
    "city": "Tokyo",
    "lat": 35.682839,
    "lng": 139.759455,
    "airport": {
      "iata": "NRT",
      "name": "Narita International Airport",
      "delay": 4
    }
  },
  {
    "city": "Sydney",
    "lat": -33.865143,
    "lng": 151.2099,
    "airport": {
      "iata": "SYD",
      "name": "Sydney Airport",
      "delay": 1
    }
  },
  {
    "city": "Rio de Janeiro",
    "lat": -22.9068,
    "lng": -43.1729,
    "airport": {
      "iata": "GIG",
      "name": "Rio de Janeiro/Galeão International Airport",
      "delay": 3
    }
  },
  {
    "city": "Berlin",
    "lat": 52.52,
    "lng": 13.405,
    "airport": {
      "iata": "BER",
      "name": "Berlin Brandenburg Airport",
      "delay": 1
    }
  },
  {
    "city": "Amsterdam",
    "lat": 52.3676,
    "lng": 4.9041,
    "airport": {
      "iata": "AMS",
      "name": "Amsterdam Airport Schiphol",
      "delay": 4
    }
  }
]